{"stations":[{"name":"Battersea Power","lat":51.479932,"lng":-0.142142,"lines":["northern"]},{"name":"Bounds Green","lat":51.60729,"lng":-0.12447,"lines":["piccadilly"]},{"name":"Bethnal Green","lat":51.527171,"lng":-0.054557,"lines":["central"]},{"name":"Blackhorse Road","lat":51.586828,"lng":-0.041645,"lines":["victoria"]},{"name":"Clapham Common","lat":51.462077,"lng":-0.137296,"lines":["northern"]},{"name":"Clapham North","lat":51.465231,"lng":-0.129811,"lines":["northern"]},{"name":"Clapham South","lat":51.452904,"lng":-0.1475,"lines":["northern"]},{"name":"Gunnersbury","lat":51.491481,"lng":-0.275395,"lines":["district"]},{"name":"Highgate","lat":51.577713,"lng":-0.145922,"lines":["northern"]},{"name":"Heathrow Terminals 1-2-3","lat":51.471352,"lng":-0.45229,"lines":["piccadilly"]},{"name":"Lambeth North","lat":51.498483,"lng":-0.111175,"lines":["bakerloo"]},{"name":"London Bridge","lat":51.505021,"lng":-0.08955,"lines":["jubilee"]},{"name":"Marble Arch","lat":51.513382,"lng":-0.157946,"lines":["central"]},{"name":"Manor House","lat":51.570349,"lng":-0.096553,"lines":["piccadilly"]},{"name":"Mornington Crescent","lat":51.534393,"lng":-0.138339,"lines":["northern"]},{"name":"Old Street","lat":51.525456,"lng":-0.087527,"lines":["northern"]},{"name":"Perivale","lat":51.536538,"lng":-0.32289,"lines":["central"]},{"name":"Ruislip Gardens","lat":51.560737,"lng":-0.410839,"lines":["central"]},{"name":"Shepherd's Bush (Central Line)","lat":51.504363,"lng":-0.217964,"lines":["central"]},{"name":"Southgate","lat":51.632252,"lng":-0.127833,"lines":["piccadilly"]},{"name":"South Kenton","lat":51.570367,"lng":-0.308486,"lines":["bakerloo"]},{"name":"South Ruislip","lat":51.556958,"lng":-0.399373,"lines":["central"]},{"name":"Tottenham Hale","lat":51.587929,"lng":-0.061374,"lines":["victoria"]},{"name":"Upminster Bridge","lat":51.558263,"lng":0.234872,"lines":["district"]},{"name":"Warwick Avenue","lat":51.522964,"lng":-0.183103,"lines":["bakerloo"]},{"name":"Waterloo","lat":51.50286,"lng":-0.113819,"lines":["northern"]},{"name":"Nine Elms","lat":51.479912,"lng":-0.128476,"lines":["northern"]},{"name":"Amersham","lat":51.674207,"lng":-0.60759,"lines":["metropolitan"]},{"name":"Balham","lat":51.443259,"lng":-0.152707,"lines":["northern"]},{"name":"Bank","lat":51.513395,"lng":-0.089095,"lines":["central","northern","waterloo-city"]},{"name":"Bond Street","lat":51.513362,"lng":-0.148795,"lines":["central","jubilee","elizabeth"]},{"name":"Blackfriars","lat":51.509613,"lng":-0.104166,"lines":["circle","district"]},{"name":"Blackhorse Road","lat":51.586768,"lng":-0.041185,"lines":["victoria"]},{"name":"Barking","lat":51.539413,"lng":0.080988,"lines":["district","hammersmith-city"]},{"name":"Brixton","lat":51.462961,"lng":-0.114531,"lines":["victoria"]},{"name":"Canning Town","lat":51.514029,"lng":0.008025,"lines":["jubilee"]},{"name":"Canary Wharf","lat":51.503734,"lng":-0.019121,"lines":["jubilee","elizabeth"]},{"name":"Chalfont & Latimer","lat":51.668109,"lng":-0.560519,"lines":["metropolitan"]},{"name":"Charing Cross","lat":51.507819,"lng":-0.126137,"lines":["bakerloo","northern"]},{"name":"Chorleywood","lat":51.654249,"lng":-0.518312,"lines":["metropolitan"]},{"name":"Cannon Street","lat":51.511451,"lng":-0.090357,"lines":["circle","district"]},{"name":"Ealing Broadway","lat":51.514993,"lng":-0.302131,"lines":["elizabeth","district","central"]},{"name":"Elephant & Castle","lat":51.494505,"lng":-0.099185,"lines":["northern","bakerloo"]},{"name":"Euston","lat":51.527365,"lng":-0.132754,"lines":["northern","victoria"]},{"name":"Finsbury Park","lat":51.564778,"lng":-0.105876,"lines":["victoria","piccadilly"]},{"name":"Greenford","lat":51.542657,"lng":-0.345789,"lines":["central"]},{"name":"Gunnersbury","lat":51.491745,"lng":-0.275276,"lines":["district"]},{"name":"Heathrow Terminals 2 & 3","lat":51.471618,"lng":-0.454037,"lines":["elizabeth","piccadilly"]},{"name":"Harlesden","lat":51.536305,"lng":-0.257774,"lines":["bakerloo"]},{"name":"Highbury & Islington","lat":51.546269,"lng":-0.103538,"lines":["victoria"]},{"name":"Hammersmith","lat":51.492304,"lng":-0.223619,"lines":["district","circle","hammersmith-city","piccadilly"]},{"name":"Harrow-on-the-Hill","lat":51.579197,"lng":-0.337226,"lines":["metropolitan"]},{"name":"Harrow & Wealdstone","lat":51.592216,"lng":-0.334896,"lines":["bakerloo"]},{"name":"Heathrow Airport Terminal 4","lat":51.458837,"lng":-0.446419,"lines":["elizabeth","piccadilly"]},{"name":"Heathrow Airport Terminal 5","lat":51.471569,"lng":-0.489556,"lines":["elizabeth","piccadilly"]},{"name":"King's Cross & St Pancras International","lat":51.531683,"lng":-0.123538,"lines":["hammersmith-city","circle","piccadilly","metropolitan","victoria","northern"]},{"name":"Kensal Green","lat":51.530545,"lng":-0.22505,"lines":["bakerloo"]},{"name":"Kenton","lat":51.581786,"lng":-0.316946,"lines":["bakerloo"]},{"name":"Kensington (Olympia)","lat":51.496156,"lng":-0.210502,"lines":["district"]},{"name":"Kentish Town","lat":51.550409,"lng":-0.140545,"lines":["northern"]},{"name":"Kew Gardens","lat":51.477069,"lng":-0.285148,"lines":["district"]},{"name":"London Bridge","lat":51.505881,"lng":-0.086807,"lines":["northern","jubilee"]},{"name":"Liverpool Street","lat":51.51794,"lng":-0.083162,"lines":["elizabeth","hammersmith-city","metropolitan","circle","central"]},{"name":"Marylebone","lat":51.521602,"lng":-0.163013,"lines":["bakerloo"]},{"name":"North Wembley","lat":51.56258,"lng":-0.303992,"lines":["bakerloo"]},{"name":"Old Street","lat":51.526065,"lng":-0.088193,"lines":["northern"]},{"name":"Paddington","lat":51.516981,"lng":-0.17616,"lines":["elizabeth","bakerloo","hammersmith-city","circle","district"]},{"name":"Queen's Park","lat":51.534443,"lng":-0.204882,"lines":["bakerloo"]},{"name":"Rickmansworth","lat":51.640247,"lng":-0.473273,"lines":["metropolitan"]},{"name":"Richmond","lat":51.463152,"lng":-0.301448,"lines":["district"]},{"name":"Stonebridge Park","lat":51.544041,"lng":-0.275859,"lines":["bakerloo"]},{"name":"South Kenton","lat":51.570229,"lng":-0.308448,"lines":["bakerloo"]},{"name":"Shepherd's Bush","lat":51.504791,"lng":-0.219213,"lines":["central"]},{"name":"Stratford","lat":51.541508,"lng":-0.00241,"lines":["elizabeth","jubilee","central"]},{"name":"South Ruislip","lat":51.556893,"lng":-0.399076,"lines":["central"]},{"name":"Seven Sisters","lat":51.582931,"lng":-0.073306,"lines":["victoria"]},{"name":"Tottenham Court Road","lat":51.516018,"lng":-0.130888,"lines":["elizabeth","northern","central"]},{"name":"Upminster","lat":51.558659,"lng":0.250855,"lines":["district"]},{"name":"Victoria","lat":51.495812,"lng":-0.143826,"lines":["circle","victoria","district"]},{"name":"Waterloo","lat":51.504269,"lng":-0.113356,"lines":["jubilee","northern","waterloo-city","bakerloo"]},{"name":"West Brompton","lat":51.487168,"lng":-0.195593,"lines":["district"]},{"name":"West Ham","lat":51.528178,"lng":0.004997,"lines":["jubilee","hammersmith-city","district"]},{"name":"Walthamstow Central","lat":51.582948,"lng":-0.019842,"lines":["victoria"]},{"name":"West Hampstead","lat":51.547533,"lng":-0.191357,"lines":["jubilee"]},{"name":"Willesden Junction","lat":51.532556,"lng":-0.243006,"lines":["bakerloo"]},{"name":"Wimbledon","lat":51.421505,"lng":-0.206444,"lines":["district"]},{"name":"Wembley Central","lat":51.55232,"lng":-0.296642,"lines":["bakerloo"]},{"name":"West Ruislip","lat":51.569721,"lng":-0.437816,"lines":["central"]},{"name":"Westminster","lat":51.501603,"lng":-0.125984,"lines":["circle","district","jubilee"]},{"name":"Canada Water","lat":51.498053,"lng":-0.049667,"lines":["jubilee"]},{"name":"Farringdon","lat":51.520214,"lng":-0.105054,"lines":["metropolitan","circle","hammersmith-city","elizabeth"]},{"name":"Moorgate","lat":51.518338,"lng":-0.088627,"lines":["northern","circle","hammersmith-city","metropolitan"]},{"name":"Whitechapel","lat":51.519498,"lng":-0.059858,"lines":["elizabeth","hammersmith-city","district"]}],"lineRoutes":{"bakerloo":[[[51.592268,-0.335217],[51.581756,-0.31691],[51.570232,-0.308433],[51.562551,-0.304],[51.552304,-0.296852],[51.543959,-0.275892],[51.53631,-0.257883],[51.532259,-0.244283],[51.530539,-0.225016],[51.534158,-0.204574],[51.534979,-0.194232],[51.529777,-0.185758],[51.523263,-0.183783],[51.516581,-0.175689],[51.520299,-0.17015],[51.522322,-0.163207],[51.522883,-0.15713],[51.523344,-0.146444],[51.515224,-0.141903],[51.51005,-0.133798],[51.50741,-0.127277],[51.507058,-0.122666],[51.503299,-0.11478],[51.498808,-0.112315],[51.494536,-0.100606]],[[51.494536,-0.100606],[51.498808,-0.112315],[51.503299,-0.11478],[51.507058,-0.122666],[51.50741,-0.127277],[51.51005,-0.133798],[51.515224,-0.141903],[51.523344,-0.146444],[51.522883,-0.15713],[51.522322,-0.163207],[51.520299,-0.17015],[51.516581,-0.175689],[51.523263,-0.183783],[51.529777,-0.185758],[51.534979,-0.194232],[51.534158,-0.204574],[51.530539,-0.225016],[51.532259,-0.244283],[51.53631,-0.257883],[51.543959,-0.275892],[51.552304,-0.296852],[51.562551,-0.304],[51.570232,-0.308433],[51.581756,-0.31691],[51.592268,-0.335217]]],"central":[[[51.69368,0.113767],[51.671759,0.103085],[51.645386,0.083782],[51.641443,0.055476],[51.626605,0.046757],[51.606899,0.03397]],[[51.606899,0.03397],[51.591907,0.027338],[51.580678,0.02144],[51.568324,0.008194]],[[51.568324,0.008194],[51.556589,-0.005523],[51.541806,-0.003458],[51.525122,-0.03364],[51.527222,-0.055506],[51.517372,-0.083182],[51.513335,-0.088712],[51.514936,-0.097567],[51.518247,-0.111583],[51.51758,-0.120475],[51.516426,-0.13041],[51.515224,-0.141903],[51.514304,-0.149723],[51.513424,-0.158953],[51.511723,-0.175494],[51.510312,-0.187152],[51.509128,-0.196104],[51.507143,-0.205679],[51.504376,-0.218813],[51.511959,-0.224297],[51.516612,-0.247248],[51.523524,-0.259755]],[[51.523524,-0.259755],[51.530177,-0.292704],[51.536717,-0.323446],[51.542424,-0.34605],[51.548236,-0.368699],[51.556853,-0.398915],[51.560736,-0.41071],[51.569688,-0.437886]],[[51.569688,-0.437886],[51.560736,-0.41071],[51.556853,-0.398915],[51.548236,-0.368699],[51.542424,-0.34605],[51.536717,-0.323446],[51.530177,-0.292704],[51.523524,-0.259755]],[[51.523524,-0.259755],[51.516612,-0.247248],[51.511959,-0.224297],[51.504376,-0.218813],[51.507143,-0.205679],[51.509128,-0.196104],[51.510312,-0.187152],[51.511723,-0.175494],[51.513424,-0.158953],[51.514304,-0.149723],[51.515224,-0.141903],[51.516426,-0.13041],[51.51758,-0.120475],[51.518247,-0.111583],[51.514936,-0.097567],[51.513335,-0.088712],[51.517372,-0.083182],[51.527222,-0.055506],[51.525122,-0.03364],[51.541806,-0.003458],[51.556589,-0.005523],[51.568324,0.008194]],[[51.568324,0.008194],[51.580678,0.02144],[51.591907,0.027338],[51.606899,0.03397]],[[51.606899,0.03397],[51.626605,0.046757],[51.641443,0.055476],[51.645386,0.083782],[51.671759,0.103085],[51.69368,0.113767]],[[51.603659,0.093482],[51.595618,0.091004],[51.585689,0.088585],[51.575726,0.090004],[51.576544,0.066185],[51.576243,0.04536],[51.575501,0.028527],[51.568324,0.008194]],[[51.603659,0.093482],[51.613378,0.092066],[51.617916,0.075041],[51.617199,0.043647],[51.606899,0.03397]],[[51.568324,0.008194],[51.575501,0.028527],[51.576243,0.04536],[51.576544,0.066185],[51.575726,0.090004],[51.585689,0.088585],[51.595618,0.091004],[51.603659,0.093482]],[[51.606899,0.03397],[51.617199,0.043647],[51.617916,0.075041],[51.613378,0.092066],[51.603659,0.093482]],[[51.523524,-0.259755],[51.518001,-0.28098],[51.515017,-0.301457]],[[51.515017,-0.301457],[51.518001,-0.28098],[51.523524,-0.259755]]],"circle":[[[51.519858,-0.167832],[51.516581,-0.175689],[51.512284,-0.187938],[51.509128,-0.196104],[51.501055,-0.192792],[51.494316,-0.182658],[51.494094,-0.174138],[51.49227,-0.156377],[51.496359,-0.143102],[51.499544,-0.133608],[51.50132,-0.124861],[51.507058,-0.122666],[51.511006,-0.11426],[51.511581,-0.103659],[51.512117,-0.094009],[51.51151,-0.090432],[51.5107,-0.085969],[51.509971,-0.076546],[51.514246,-0.075689],[51.517372,-0.083182],[51.518176,-0.088322],[51.520275,-0.097993],[51.520252,-0.104913],[51.530663,-0.123194],[51.525604,-0.135829],[51.52384,-0.144262],[51.522883,-0.15713],[51.519858,-0.167832]],[[51.519858,-0.167832],[51.518187,-0.178306],[51.519113,-0.188748],[51.52111,-0.201065],[51.517449,-0.210391],[51.513389,-0.217799],[51.509669,-0.22453],[51.505579,-0.226375],[51.502005,-0.226715],[51.49339,-0.22503]],[[51.49339,-0.22503],[51.502005,-0.226715],[51.505579,-0.226375],[51.509669,-0.22453],[51.513389,-0.217799],[51.517449,-0.210391],[51.52111,-0.201065],[51.519113,-0.188748],[51.518187,-0.178306],[51.519858,-0.167832]],[[51.519858,-0.167832],[51.522883,-0.15713],[51.52384,-0.144262],[51.525604,-0.135829],[51.530663,-0.123194],[51.520252,-0.104913],[51.520275,-0.097993],[51.518176,-0.088322],[51.517372,-0.083182],[51.514246,-0.075689],[51.509971,-0.076546],[51.5107,-0.085969],[51.51151,-0.090432],[51.512117,-0.094009],[51.511581,-0.103659],[51.511006,-0.11426],[51.507058,-0.122666],[51.50132,-0.124861],[51.499544,-0.133608],[51.496359,-0.143102],[51.49227,-0.156377],[51.494094,-0.174138],[51.494316,-0.182658],[51.501055,-0.192792],[51.509128,-0.196104],[51.512284,-0.187938],[51.516581,-0.175689],[51.519858,-0.167832]]],"district":[[[51.559063,0.250882],[51.55856,0.235809],[51.554093,0.219116],[51.549775,0.19864],[51.544096,0.166017],[51.541639,0.147527],[51.540331,0.127016],[51.538372,0.10153],[51.539321,0.081053],[51.538948,0.051186],[51.53534,0.035263],[51.531341,0.017451],[51.528136,0.005055],[51.524839,-0.011538],[51.52694,-0.025128],[51.525122,-0.03364],[51.521858,-0.046596],[51.519518,-0.059971],[51.515037,-0.072384],[51.509971,-0.076546],[51.5107,-0.085969],[51.51151,-0.090432],[51.512117,-0.094009],[51.511581,-0.103659],[51.511006,-0.11426],[51.507058,-0.122666],[51.50132,-0.124861],[51.499544,-0.133608],[51.496359,-0.143102],[51.49227,-0.156377],[51.494094,-0.174138],[51.494316,-0.182658],[51.492063,-0.193378]],[[51.492063,-0.193378],[51.490459,-0.206636],[51.490311,-0.213427],[51.4923,-0.22362],[51.494122,-0.235881],[51.494917,-0.245704],[51.495148,-0.254555]],[[51.495148,-0.254555],[51.494627,-0.267972],[51.503057,-0.280462],[51.51014,-0.288265],[51.515017,-0.301457]],[[51.515017,-0.301457],[51.51014,-0.288265],[51.503057,-0.280462],[51.494627,-0.267972],[51.495148,-0.254555]],[[51.495148,-0.254555],[51.494917,-0.245704],[51.494122,-0.235881],[51.4923,-0.22362],[51.490311,-0.213427],[51.490459,-0.206636],[51.492063,-0.193378]],[[51.492063,-0.193378],[51.494316,-0.182658],[51.494094,-0.174138],[51.49227,-0.156377],[51.496359,-0.143102],[51.499544,-0.133608],[51.50132,-0.124861],[51.507058,-0.122666],[51.511006,-0.11426],[51.511581,-0.103659],[51.512117,-0.094009],[51.51151,-0.090432],[51.5107,-0.085969],[51.509971,-0.076546],[51.515037,-0.072384],[51.519518,-0.059971],[51.521858,-0.046596],[51.525122,-0.03364],[51.52694,-0.025128],[51.524839,-0.011538],[51.528136,0.005055],[51.531341,0.017451],[51.53534,0.035263],[51.538948,0.051186],[51.539321,0.081053],[51.538372,0.10153],[51.540331,0.127016],[51.541639,0.147527],[51.544096,0.166017],[51.549775,0.19864],[51.554093,0.219116],[51.55856,0.235809],[51.559063,0.250882]],[[51.495148,-0.254555],[51.491803,-0.275267],[51.477058,-0.285241],[51.463237,-0.301336]],[[51.463237,-0.301336],[51.477058,-0.285241],[51.491803,-0.275267],[51.495148,-0.254555]],[[51.492063,-0.193378],[51.487268,-0.195599],[51.480081,-0.195422],[51.475277,-0.20117],[51.468262,-0.208731],[51.459205,-0.211],[51.445073,-0.206602],[51.434573,-0.199719],[51.421207,-0.206573]],[[51.421207,-0.206573],[51.434573,-0.199719],[51.445073,-0.206602],[51.459205,-0.211],[51.468262,-0.208731],[51.475277,-0.20117],[51.480081,-0.195422],[51.487268,-0.195599],[51.492063,-0.193378]],[[51.519858,-0.167832],[51.516581,-0.175689],[51.512284,-0.187938],[51.509128,-0.196104],[51.501055,-0.192792],[51.492063,-0.193378]],[[51.492063,-0.193378],[51.501055,-0.192792],[51.509128,-0.196104],[51.512284,-0.187938],[51.516581,-0.175689],[51.519858,-0.167832]],[[51.492063,-0.193378],[51.497624,-0.210015]],[[51.497624,-0.210015],[51.492063,-0.193378]]],"elizabeth":[[[51.458268,-0.445463],[51.47098,-0.45803]],[[51.47098,-0.45803],[51.503096,-0.420683]],[[51.503096,-0.420683],[51.505957,-0.37861],[51.511835,-0.338583],[51.513506,-0.320133],[51.514841,-0.301752],[51.51718,-0.266756]],[[51.51718,-0.266756],[51.516451,-0.177107]],[[51.516451,-0.177107],[51.513895,-0.147246],[51.515698,-0.13044],[51.520189,-0.104915],[51.517721,-0.082043],[51.519632,-0.059837]],[[51.519632,-0.059837],[51.541895,-0.003397]],[[51.541895,-0.003397],[51.546081,0.005815],[51.549432,0.024353],[51.552477,0.046342],[51.559118,0.06968],[51.564026,0.0971],[51.565579,0.110807],[51.568039,0.128958],[51.574829,0.183237],[51.581904,0.205964],[51.592766,0.233129],[51.613605,0.299586],[51.630877,0.329851]],[[51.470053,-0.490589],[51.47098,-0.45803]],[[51.630877,0.329851],[51.613605,0.299586],[51.592766,0.233129],[51.581904,0.205964],[51.574829,0.183237],[51.568039,0.128958],[51.565579,0.110807],[51.564026,0.0971],[51.559118,0.06968],[51.552477,0.046342],[51.549432,0.024353],[51.546081,0.005815],[51.541895,-0.003397]],[[51.541895,-0.003397],[51.519632,-0.059837]],[[51.519632,-0.059837],[51.517721,-0.082043],[51.520189,-0.104915],[51.515698,-0.13044],[51.513895,-0.147246],[51.516451,-0.177107]],[[51.516451,-0.177107],[51.51718,-0.266756]],[[51.51718,-0.266756],[51.514841,-0.301752],[51.513506,-0.320133],[51.511835,-0.338583],[51.505957,-0.37861],[51.503096,-0.420683]],[[51.503096,-0.420683],[51.47098,-0.45803]],[[51.47098,-0.45803],[51.458268,-0.445463]],[[51.47098,-0.45803],[51.470053,-0.490589]],[[51.519632,-0.059837],[51.506203,-0.018834],[51.50986,0.026677],[51.492168,0.070593],[51.491284,0.121087]],[[51.458786,-0.971863],[51.475534,-0.863293],[51.518669,-0.72266],[51.523562,-0.68137],[51.523506,-0.646374],[51.51188,-0.59151],[51.508062,-0.541756],[51.508503,-0.506726],[51.510055,-0.472234],[51.503096,-0.420683]],[[51.503096,-0.420683],[51.510055,-0.472234],[51.508503,-0.506726],[51.508062,-0.541756],[51.51188,-0.59151],[51.523506,-0.646374],[51.523562,-0.68137],[51.518669,-0.72266],[51.475534,-0.863293],[51.458786,-0.971863]],[[51.491284,0.121087],[51.492168,0.070593],[51.50986,0.026677],[51.506203,-0.018834],[51.519632,-0.059837]],[[51.51718,-0.266756],[51.515996,-0.176174]],[[51.515996,-0.176174],[51.51718,-0.266756]],[[51.517991,-0.081426],[51.541895,-0.003397]],[[51.541895,-0.003397],[51.517991,-0.081426]]],"hammersmith-city":[[[51.539321,0.081053],[51.538948,0.051186],[51.53534,0.035263],[51.531341,0.017451],[51.528136,0.005055],[51.524839,-0.011538],[51.52694,-0.025128],[51.525122,-0.03364],[51.521858,-0.046596],[51.519518,-0.059971],[51.515037,-0.072384],[51.517372,-0.083182],[51.518176,-0.088322],[51.520275,-0.097993],[51.520252,-0.104913],[51.530663,-0.123194],[51.525604,-0.135829],[51.52384,-0.144262],[51.522883,-0.15713],[51.519858,-0.167832],[51.518187,-0.178306],[51.519113,-0.188748],[51.52111,-0.201065],[51.517449,-0.210391],[51.513389,-0.217799],[51.509669,-0.22453],[51.505579,-0.226375],[51.502005,-0.226715],[51.49339,-0.22503]],[[51.49339,-0.22503],[51.502005,-0.226715],[51.505579,-0.226375],[51.509669,-0.22453],[51.513389,-0.217799],[51.517449,-0.210391],[51.52111,-0.201065],[51.519113,-0.188748],[51.518187,-0.178306],[51.519858,-0.167832],[51.522883,-0.15713],[51.52384,-0.144262],[51.525604,-0.135829],[51.530663,-0.123194],[51.520252,-0.104913],[51.520275,-0.097993],[51.518176,-0.088322],[51.517372,-0.083182],[51.515037,-0.072384],[51.519518,-0.059971],[51.521858,-0.046596],[51.525122,-0.03364],[51.52694,-0.025128],[51.524839,-0.011538],[51.528136,0.005055],[51.531341,0.017451],[51.53534,0.035263],[51.538948,0.051186],[51.539321,0.081053]]],"jubilee":[[[51.541806,-0.003458],[51.528136,0.005055],[51.513584,0.008322],[51.50047,0.004287],[51.503488,-0.018246],[51.497931,-0.049405],[51.49775,-0.063993],[51.505721,-0.088873],[51.50427,-0.105331],[51.503299,-0.11478],[51.50132,-0.124861],[51.506947,-0.142787],[51.514304,-0.149723],[51.522883,-0.15713],[51.534521,-0.173948],[51.543681,-0.174894],[51.546825,-0.179845],[51.546638,-0.191059],[51.547183,-0.204248],[51.549146,-0.221537],[51.551955,-0.239068],[51.553986,-0.249837],[51.563198,-0.279262],[51.584845,-0.27879],[51.594188,-0.286219],[51.607701,-0.294693],[51.619839,-0.303266]],[[51.619839,-0.303266],[51.607701,-0.294693],[51.594188,-0.286219],[51.584845,-0.27879],[51.563198,-0.279262],[51.553986,-0.249837],[51.551955,-0.239068],[51.549146,-0.221537],[51.547183,-0.204248],[51.546638,-0.191059],[51.546825,-0.179845],[51.543681,-0.174894],[51.534521,-0.173948],[51.522883,-0.15713],[51.514304,-0.149723],[51.506947,-0.142787],[51.50132,-0.124861],[51.503299,-0.11478],[51.50427,-0.105331],[51.505721,-0.088873],[51.49775,-0.063993],[51.497931,-0.049405],[51.503488,-0.018246],[51.50047,0.004287],[51.513584,0.008322],[51.528136,0.005055],[51.541806,-0.003458]]],"metropolitan":[[[51.674126,-0.607714],[51.667985,-0.560689]],[[51.667985,-0.560689],[51.654358,-0.518461],[51.640207,-0.473703],[51.629845,-0.432454]],[[51.629845,-0.432454],[51.611053,-0.423829],[51.600572,-0.409464],[51.592901,-0.381161],[51.584872,-0.362408],[51.579195,-0.337225]],[[51.579195,-0.337225],[51.578481,-0.318056],[51.571972,-0.295107],[51.563198,-0.279262]],[[51.546825,-0.179845],[51.522883,-0.15713],[51.52384,-0.144262],[51.525604,-0.135829],[51.530663,-0.123194],[51.520252,-0.104913],[51.520275,-0.097993],[51.518176,-0.088322],[51.517372,-0.083182],[51.514246,-0.075689]],[[51.563198,-0.279262],[51.549146,-0.221537],[51.546825,-0.179845]],[[51.514246,-0.075689],[51.517372,-0.083182],[51.518176,-0.088322],[51.520275,-0.097993],[51.520252,-0.104913],[51.530663,-0.123194],[51.525604,-0.135829],[51.52384,-0.144262],[51.522883,-0.15713],[51.546825,-0.179845],[51.563198,-0.279262],[51.571972,-0.295107],[51.578481,-0.318056],[51.579195,-0.337225]],[[51.579195,-0.337225],[51.584872,-0.362408],[51.592901,-0.381161],[51.600572,-0.409464],[51.611053,-0.423829],[51.629845,-0.432454]],[[51.629845,-0.432454],[51.640207,-0.473703],[51.654358,-0.518461],[51.667985,-0.560689]],[[51.667985,-0.560689],[51.705208,-0.611247]],[[51.667985,-0.560689],[51.674126,-0.607714]],[[51.563198,-0.279262],[51.546825,-0.179845]],[[51.705208,-0.611247],[51.667985,-0.560689]],[[51.579195,-0.337225],[51.57971,-0.3534],[51.575147,-0.371127],[51.576506,-0.397373],[51.573202,-0.412973],[51.571354,-0.421898],[51.56177,-0.442225],[51.553715,-0.449828],[51.546565,-0.477949]],[[51.546565,-0.477949],[51.553715,-0.449828],[51.56177,-0.442225],[51.571354,-0.421898],[51.573202,-0.412973],[51.576506,-0.397373],[51.575147,-0.371127],[51.57971,-0.3534],[51.579195,-0.337225]],[[51.629845,-0.432454],[51.647044,-0.441718],[51.657446,-0.417377]],[[51.657446,-0.417377],[51.647044,-0.441718],[51.629845,-0.432454]]],"northern":[[[51.650541,-0.194298],[51.630597,-0.17921],[51.618014,-0.18542],[51.609426,-0.188362],[51.600921,-0.192527]],[[51.600921,-0.192527],[51.587131,-0.165012],[51.577532,-0.145857],[51.565478,-0.134819],[51.556822,-0.138433],[51.550312,-0.140733],[51.539292,-0.14274]],[[51.539292,-0.14274],[51.534679,-0.138789],[51.527824,-0.131846]],[[51.527824,-0.131846],[51.524951,-0.138321],[51.520599,-0.134361],[51.516426,-0.13041],[51.511386,-0.128426],[51.50741,-0.127277],[51.507058,-0.122666],[51.503299,-0.11478],[51.488337,-0.105963]],[[51.488337,-0.105963],[51.48185,-0.112439],[51.472184,-0.122644],[51.465135,-0.130016],[51.461742,-0.138317],[51.452654,-0.147582],[51.443288,-0.152997],[51.435678,-0.159736],[51.42763,-0.168374],[51.41816,-0.178086],[51.415309,-0.192005],[51.402142,-0.194839]],[[51.539292,-0.14274],[51.527824,-0.131846]],[[51.527824,-0.131846],[51.530663,-0.123194],[51.531788,-0.105919],[51.525864,-0.08777],[51.518176,-0.088322],[51.513335,-0.088712],[51.505721,-0.088873],[51.501199,-0.09337],[51.494536,-0.100606],[51.488337,-0.105963]],[[51.402142,-0.194839],[51.415309,-0.192005],[51.41816,-0.178086],[51.42763,-0.168374],[51.435678,-0.159736],[51.443288,-0.152997],[51.452654,-0.147582],[51.461742,-0.138317],[51.465135,-0.130016],[51.472184,-0.122644],[51.48185,-0.112439],[51.488337,-0.105963]],[[51.488337,-0.105963],[51.503299,-0.11478],[51.507058,-0.122666],[51.50741,-0.127277],[51.511386,-0.128426],[51.516426,-0.13041],[51.520599,-0.134361],[51.524951,-0.138321],[51.527824,-0.131846]],[[51.527824,-0.131846],[51.534679,-0.138789],[51.539292,-0.14274]],[[51.539292,-0.14274],[51.550312,-0.140733],[51.556822,-0.138433],[51.565478,-0.134819],[51.577532,-0.145857],[51.587131,-0.165012],[51.600921,-0.192527]],[[51.600921,-0.192527],[51.609426,-0.188362],[51.618014,-0.18542],[51.630597,-0.17921],[51.650541,-0.194298]],[[51.488337,-0.105963],[51.494536,-0.100606],[51.501199,-0.09337],[51.505721,-0.088873],[51.513335,-0.088712],[51.518176,-0.088322],[51.525864,-0.08777],[51.531788,-0.105919],[51.530663,-0.123194],[51.527824,-0.131846]],[[51.527824,-0.131846],[51.539292,-0.14274]],[[51.613653,-0.274928],[51.602774,-0.264048],[51.595424,-0.249919],[51.583301,-0.226424],[51.57665,-0.213622],[51.572259,-0.194039],[51.556239,-0.177464],[51.550311,-0.164648],[51.544118,-0.153388],[51.539292,-0.14274]],[[51.539292,-0.14274],[51.544118,-0.153388],[51.550311,-0.164648],[51.556239,-0.177464],[51.572259,-0.194039],[51.57665,-0.213622],[51.583301,-0.226424],[51.595424,-0.249919],[51.602774,-0.264048],[51.613653,-0.274928]],[[51.608229,-0.209986],[51.600921,-0.192527]],[[51.600921,-0.192527],[51.608229,-0.209986]],[[51.488337,-0.105963],[51.479912,-0.128476],[51.479932,-0.142142]],[[51.479932,-0.142142],[51.479912,-0.128476],[51.488337,-0.105963]]],"piccadilly":[[[51.65152,-0.149171],[51.647726,-0.132182],[51.632315,-0.127816],[51.616446,-0.133062],[51.607034,-0.124235],[51.597479,-0.109886],[51.590272,-0.102953],[51.570738,-0.096118],[51.564158,-0.106825],[51.558655,-0.107457],[51.552697,-0.113244],[51.548519,-0.118493],[51.530663,-0.123194],[51.523073,-0.124285],[51.51758,-0.120475],[51.513093,-0.124436],[51.511386,-0.128426],[51.51005,-0.133798],[51.506947,-0.142787],[51.503035,-0.152441],[51.501669,-0.160508],[51.494094,-0.174138],[51.494316,-0.182658],[51.492063,-0.193378],[51.490311,-0.213427],[51.4923,-0.22362],[51.495148,-0.254555],[51.503057,-0.280462]],[[51.503057,-0.280462],[51.51014,-0.288265],[51.517505,-0.288868],[51.527123,-0.284341],[51.540627,-0.29961],[51.550815,-0.315745],[51.556946,-0.336435],[51.564888,-0.352492],[51.575147,-0.371127],[51.576506,-0.397373],[51.573202,-0.412973],[51.571354,-0.421898],[51.56177,-0.442225],[51.553715,-0.449828],[51.546565,-0.477949]],[[51.546565,-0.477949],[51.553715,-0.449828],[51.56177,-0.442225],[51.571354,-0.421898],[51.573202,-0.412973],[51.576506,-0.397373],[51.575147,-0.371127],[51.564888,-0.352492],[51.556946,-0.336435],[51.550815,-0.315745],[51.540627,-0.29961],[51.527123,-0.284341],[51.517505,-0.288868],[51.51014,-0.288265],[51.503057,-0.280462]],[[51.503057,-0.280462],[51.495148,-0.254555],[51.4923,-0.22362],[51.490311,-0.213427],[51.492063,-0.193378],[51.494316,-0.182658],[51.494094,-0.174138],[51.501669,-0.160508],[51.503035,-0.152441],[51.506947,-0.142787],[51.51005,-0.133798],[51.511386,-0.128426],[51.513093,-0.124436],[51.51758,-0.120475],[51.523073,-0.124285],[51.530663,-0.123194],[51.548519,-0.118493],[51.552697,-0.113244],[51.558655,-0.107457],[51.564158,-0.106825],[51.570738,-0.096118],[51.590272,-0.102953],[51.597479,-0.109886],[51.607034,-0.124235],[51.616446,-0.133062],[51.632315,-0.127816],[51.647726,-0.132182],[51.65152,-0.149171]],[[51.503057,-0.280462],[51.501003,-0.307424],[51.499319,-0.314719],[51.495635,-0.324939],[51.481274,-0.352224],[51.473213,-0.356474],[51.471295,-0.366578],[51.473469,-0.386544],[51.466747,-0.423191]],[[51.466747,-0.423191],[51.471235,-0.452265],[51.470052,-0.49056]],[[51.458524,-0.445771],[51.471235,-0.452265]],[[51.471235,-0.452265],[51.466747,-0.423191],[51.473469,-0.386544],[51.471295,-0.366578],[51.473213,-0.356474],[51.481274,-0.352224],[51.495635,-0.324939],[51.499319,-0.314719],[51.501003,-0.307424],[51.503057,-0.280462]],[[51.470052,-0.49056],[51.471235,-0.452265]],[[51.466747,-0.423191],[51.458524,-0.445771]]],"victoria":[[[51.582965,-0.019885],[51.586919,-0.04115],[51.588108,-0.060241],[51.58333,-0.072584],[51.564158,-0.106825],[51.54635,-0.103324],[51.530663,-0.123194],[51.527824,-0.131846],[51.524951,-0.138321],[51.515224,-0.141903],[51.506947,-0.142787],[51.496359,-0.143102],[51.489097,-0.133761],[51.485743,-0.124204],[51.472184,-0.122644],[51.462618,-0.114888]],[[51.462618,-0.114888],[51.472184,-0.122644],[51.485743,-0.124204],[51.489097,-0.133761],[51.496359,-0.143102],[51.506947,-0.142787],[51.515224,-0.141903],[51.524951,-0.138321],[51.527824,-0.131846],[51.530663,-0.123194],[51.54635,-0.103324],[51.564158,-0.106825],[51.58333,-0.072584],[51.588108,-0.060241],[51.586919,-0.04115],[51.582965,-0.019885]]],"waterloo-city":[[[51.513335,-0.088712],[51.503299,-0.11478]],[[51.503299,-0.11478],[51.513335,-0.088712]]]},"lineColors":{"bakerloo":"#B36305","central":"#E32017","circle":"#FFD300","district":"#00782A","elizabeth":"#6950A1","hammersmith-city":"#F3A9BB","jubilee":"#A0A5A9","metropolitan":"#9B0056","northern":"#000000","piccadilly":"#003688","victoria":"#0098D4","waterloo-city":"#95CDBA"},"lineNames":{"bakerloo":"Bakerloo","central":"Central","circle":"Circle","district":"District","elizabeth":"Elizabeth","hammersmith-city":"Hammersmith & City","jubilee":"Jubilee","metropolitan":"Metropolitan","northern":"Northern","piccadilly":"Piccadilly","victoria":"Victoria","waterloo-city":"Waterloo & City"}}